<ArGpsLocationData><Entry><id>0</id><altitude>0</altitude><altitudeMode>GroundRelative</altitudeMode><name>CluelessQuad2</name><meshId>CluelessQuad2</meshId><movementSmoothing>0.05</movementSmoothing><maxNumberOfLocationUpdates>1</maxNumberOfLocationUpdates><useMovingAverage>false</useMovingAverage><hideObjectUtilItIsPlaced>true</hideObjectUtilItIsPlaced><lat>34.12700224639072</lat><lng>-118.21199268643193</lng></Entry><Entry><id>1</id><altitude>0</altitude><altitudeMode>GroundRelative</altitudeMode><name>CluelessQuad1</name><meshId>CluelessQuad1</meshId><movementSmoothing>0.05</movementSmoothing><maxNumberOfLocationUpdates>1</maxNumberOfLocationUpdates><useMovingAverage>false</useMovingAverage><hideObjectUtilItIsPlaced>true</hideObjectUtilItIsPlaced><lat>34.12762485328504</lat><lng>-118.21205480916024</lng></Entry><Entry><id>2</id><altitude>0</altitude><altitudeMode>GroundRelative</altitudeMode><name>StarTrekGilman</name><meshId>StarTrekGilman</meshId><movementSmoothing>0.05</movementSmoothing><maxNumberOfLocationUpdates>1</maxNumberOfLocationUpdates><useMovingAverage>false</useMovingAverage><hideObjectUtilItIsPlaced>true</hideObjectUtilItIsPlaced><lat>34.126587292142176</lat><lng>-118.2126168940411</lng></Entry><Entry><id>3</id><altitude>0</altitude><altitudeMode>GroundRelative</altitudeMode><name>DontBeAMenaceGilman</name><meshId>DontBeAMenaceGilman</meshId><movementSmoothing>0.05</movementSmoothing><maxNumberOfLocationUpdates>1</maxNumberOfLocationUpdates><useMovingAverage>false</useMovingAverage><hideObjectUtilItIsPlaced>true</hideObjectUtilItIsPlaced><lat>34.12672377526113</lat><lng>-118.21218988995807</lng></Entry><Entry><id>4</id><altitude>0</altitude><altitudeMode>GroundRelative</altitudeMode><name>GleeGilman</name><meshId>GleeGilman</meshId><movementSmoothing>0.05</movementSmoothing><maxNumberOfLocationUpdates>1</maxNumberOfLocationUpdates><useMovingAverage>false</useMovingAverage><hideObjectUtilItIsPlaced>true</hideObjectUtilItIsPlaced><lat>34.126557145795346</lat><lng>-118.21248471230348</lng></Entry><Entry><id>5</id><altitude>0</altitude><altitudeMode>GroundRelative</altitudeMode><name>JurassicParkThorne</name><meshId>JurassicParkThorne</meshId><movementSmoothing>0.05</movementSmoothing><maxNumberOfLocationUpdates>1</maxNumberOfLocationUpdates><useMovingAverage>false</useMovingAverage><hideObjectUtilItIsPlaced>true</hideObjectUtilItIsPlaced><lat>34.128822096476696</lat><lng>-118.21248532013063</lng></Entry><Entry><id>6</id><altitude>0</altitude><altitudeMode>GroundRelative</altitudeMode><name>90210Throne</name><meshId>90210Throne</meshId><movementSmoothing>0.05</movementSmoothing><maxNumberOfLocationUpdates>1</maxNumberOfLocationUpdates><useMovingAverage>false</useMovingAverage><hideObjectUtilItIsPlaced>true</hideObjectUtilItIsPlaced><lat>34.128788315429475</lat><lng>-118.21243090774394</lng></Entry><Entry><id>7</id><altitude>0</altitude><altitudeMode>GroundRelative</altitudeMode><name>HolidayThorne</name><meshId>HolidayThorne</meshId><movementSmoothing>0.05</movementSmoothing><maxNumberOfLocationUpdates>1</maxNumberOfLocationUpdates><useMovingAverage>false</useMovingAverage><hideObjectUtilItIsPlaced>true</hideObjectUtilItIsPlaced><lat>34.12880520595475</lat><lng>-118.2125601371626</lng></Entry><Entry><id>8</id><altitude>0</altitude><altitudeMode>GroundRelative</altitudeMode><name>WestWingThorne</name><meshId>WestWingThorne</meshId><movementSmoothing>0.05</movementSmoothing><maxNumberOfLocationUpdates>1</maxNumberOfLocationUpdates><useMovingAverage>false</useMovingAverage><hideObjectUtilItIsPlaced>true</hideObjectUtilItIsPlaced><lat>34.12874515073767</lat><lng>-118.21257600744204</lng></Entry><Entry><id>9</id><altitude>0</altitude><altitudeMode>GroundRelative</altitudeMode><name>PatAndMikeMP</name><meshId>PatAndMikeMP</meshId><movementSmoothing>0.05</movementSmoothing><maxNumberOfLocationUpdates>1</maxNumberOfLocationUpdates><useMovingAverage>false</useMovingAverage><hideObjectUtilItIsPlaced>true</hideObjectUtilItIsPlaced><lat>34.12731940120409</lat><lng>-118.21213508878719</lng></Entry><Entry><id>10</id><altitude>0</altitude><altitudeMode>GroundRelative</altitudeMode><name>CluelessQuad2Act</name><meshId>CluelessQuad2Act</meshId><movementSmoothing>0.05</movementSmoothing><maxNumberOfLocationUpdates>1</maxNumberOfLocationUpdates><useMovingAverage>false</useMovingAverage><hideObjectUtilItIsPlaced>true</hideObjectUtilItIsPlaced><lat>34.12712897205955</lat><lng>-118.21205037182231</lng></Entry><Entry><id>11</id><altitude>0</altitude><altitudeMode>GroundRelative</altitudeMode><name>CluelessQuad1Act</name><meshId>CluelessQuad1Act</meshId><movementSmoothing>0.05</movementSmoothing><maxNumberOfLocationUpdates>1</maxNumberOfLocationUpdates><useMovingAverage>false</useMovingAverage><hideObjectUtilItIsPlaced>true</hideObjectUtilItIsPlaced><lat>34.12772402918098</lat><lng>-118.2120015611074</lng></Entry><Entry><id>12</id><altitude>0</altitude><altitudeMode>GroundRelative</altitudeMode><name>StarTrekGilmanAct</name><meshId>StarTrekGilmanAct</meshId><movementSmoothing>0.05</movementSmoothing><maxNumberOfLocationUpdates>1</maxNumberOfLocationUpdates><useMovingAverage>false</useMovingAverage><hideObjectUtilItIsPlaced>true</hideObjectUtilItIsPlaced><lat>34.126499451309684</lat><lng>-118.21289107180147</lng></Entry><Entry><id>13</id><altitude>0</altitude><altitudeMode>GroundRelative</altitudeMode><name>DontBeAMenaceGilmanAct</name><meshId>DontBeAMenaceGilmanAct</meshId><movementSmoothing>0.05</movementSmoothing><maxNumberOfLocationUpdates>1</maxNumberOfLocationUpdates><useMovingAverage>false</useMovingAverage><hideObjectUtilItIsPlaced>true</hideObjectUtilItIsPlaced><lat>34.12665367409056</lat><lng>-118.21241345518352</lng></Entry><Entry><id>14</id><altitude>0</altitude><altitudeMode>GroundRelative</altitudeMode><name>GleeGilmanAct</name><meshId>GleeGilmanAct</meshId><movementSmoothing>0.05</movementSmoothing><maxNumberOfLocationUpdates>1</maxNumberOfLocationUpdates><useMovingAverage>false</useMovingAverage><hideObjectUtilItIsPlaced>true</hideObjectUtilItIsPlaced><lat>34.126434958063186</lat><lng>-118.2126607318722</lng></Entry><Entry><id>15</id><lat>34.128748904189536</lat><lng>-118.21248305294785</lng><altitude>0</altitude><altitudeMode>GroundRelative</altitudeMode><name>JurassicParkThorneAct</name><meshId>JurassicParkThorneAct</meshId><movementSmoothing>0.05</movementSmoothing><maxNumberOfLocationUpdates>1</maxNumberOfLocationUpdates><useMovingAverage>false</useMovingAverage><hideObjectUtilItIsPlaced>true</hideObjectUtilItIsPlaced></Entry><Entry><id>16</id><lat>34.128748904189536</lat><lng>-118.21248305294785</lng><altitude>0</altitude><altitudeMode>GroundRelative</altitudeMode><name>90210ThorneAct</name><meshId>90210ThorneAct</meshId><movementSmoothing>0.05</movementSmoothing><maxNumberOfLocationUpdates>1</maxNumberOfLocationUpdates><useMovingAverage>false</useMovingAverage><hideObjectUtilItIsPlaced>true</hideObjectUtilItIsPlaced></Entry><Entry><id>17</id><lat>34.128748904189536</lat><lng>-118.21248305294785</lng><altitude>0</altitude><altitudeMode>GroundRelative</altitudeMode><name>HolidayThorneAct</name><meshId>HolidayThorneAct</meshId><movementSmoothing>0.05</movementSmoothing><maxNumberOfLocationUpdates>1</maxNumberOfLocationUpdates><useMovingAverage>false</useMovingAverage><hideObjectUtilItIsPlaced>true</hideObjectUtilItIsPlaced></Entry><Entry><id>18</id><lat>34.128748904189536</lat><lng>-118.21248305294785</lng><altitude>0</altitude><altitudeMode>GroundRelative</altitudeMode><name>WestWingThorneAct</name><meshId>WestWingThorneAct</meshId><movementSmoothing>0.05</movementSmoothing><maxNumberOfLocationUpdates>1</maxNumberOfLocationUpdates><useMovingAverage>false</useMovingAverage><hideObjectUtilItIsPlaced>true</hideObjectUtilItIsPlaced></Entry><Entry><id>19</id><lat>34.127234520687054</lat><lng>-118.21214542153415</lng><altitude>0</altitude><altitudeMode>GroundRelative</altitudeMode><name>PatAndMikeMPAct</name><meshId>PatAndMikeMPAct</meshId><movementSmoothing>0.05</movementSmoothing><maxNumberOfLocationUpdates>1</maxNumberOfLocationUpdates><useMovingAverage>false</useMovingAverage><hideObjectUtilItIsPlaced>true</hideObjectUtilItIsPlaced></Entry></ArGpsLocationData>